[{"name":"Bacon","id":"3","locations":[{"name":"","address1":"232 West 12th Street","city":"Alma","zip":"31510","coordinates":[-82.4656274,31.5416871]}]},{"name":"Banks","id":"6","locations":[{"name":"Banks County Registrar's Office","address1":"226 Candler Street","city":"Homer","zip":"","coordinates":[-83.4978017,34.3354927]}]},{"name":"Ben Hill","id":"9","locations":[{"name":"Ben Hill Elections Office","address1":"115 W Pine Street ","city":"Fitzgerald","zip":"31750","coordinates":[-83.2574017,31.7139]}]},{"name":"Berrien","id":"10","locations":[{"name":"Berrien County Board of Elections and Registration","address1":"201 N. Davis Street","city":"Nashville","zip":"31639","coordinates":[-83.2516778,31.2084593]}]},{"name":"Bibb","id":"11","locations":[{"name":"Macon-Bibb County Board of Elections","address1":"2445 Pio Nono Avenue","city":"Macon","zip":"31206","coordinates":[-83.6651026,32.8152413]}]},{"name":"Brantley","id":"13","locations":[{"name":"Board of Elections and Registration Office","address1":"10305 N. Main St.","address2":"Suite 400","city":"Nahunta","zip":"31553","coordinates":[-81.9805678,31.2082003]}]},{"name":"Brooks","id":"14","locations":[{"name":"elections office","address1":"610 S Highland Rd","city":"Quitman","zip":"31643","coordinates":[-83.5551648,30.7794837]}]},{"name":"Bryan","id":"15","locations":[{"name":"Bryan County Administration Bldg","address1":"66 Capt. Matthew Freeman Dr.","city":"Richmond Hill","zip":"31324","coordinates":[-81.2602868,31.8811072]},{"name":"Bryan County Courthouse","address1":"Commissioners Meeting Room","address2":"42 N. Courthouse St","city":"Pembroke","zip":"31321","coordinates":[-81.6211174,32.1338181]}]},{"name":"Camden","id":"20","locations":[{"name":"Voter Registration","address1":"200 E 4th St","city":"Woodbine","zip":"31569","coordinates":[-81.7232475,30.9681265]}]},{"name":"Catoosa","id":"23","locations":[{"name":"Freedom Center","address1":"5238 Evitt Street","city":"Ringgold","zip":"30736","coordinates":[-85.1069494,34.9159986]},{"name":"Westside Voting Precinct","address1":"3319 Lakeview Dr","city":"Rossville","zip":"30741","coordinates":[-85.2253164,34.9615193]}]},{"name":"Chatham","id":"25","locations":[{"name":"Voter Registration Office","address1":"1117 Eisenhower Drive, Suite E","city":"Savannah","zip":"31401","coordinates":[-81.1013359,32.006771]}]},{"name":"Cherokee","id":"28","locations":[{"name":"Cherokee County Elections & Registration","address1":"400 East Main Street","city":"Canton","zip":"30114","coordinates":[-84.487127,34.236605]}]},{"name":"Clayton","id":"31","locations":[{"name":"Clayton County Elections and Registration","address1":"Second Floor","address2":"121 S. McDonough Street","city":"Jonesboro","zip":"30236","coordinates":[-84.3554281,33.5210731]}]},{"name":"Columbia","id":"36","locations":[{"name":"Columbia County Board of Elections","address1":"500 Faircloth Drive, Building E","city":"Evans","zip":"30809","coordinates":[-82.1356588,33.5454835]}]},{"name":"Coweta","id":"38","locations":[{"name":"Coweta County Voter Registration Office","address1":"22 East Broad Street","address2":"Room 128","city":"Newnan","zip":"30263","coordinates":[-84.7983802,33.3746465]},{"name":"East Side Central Community Center","address1":"65 Literary Lane","city":"Newnan","zip":"30265","coordinates":[-84.6712726,33.3862513]}]},{"name":"Crisp","id":"40","locations":[{"name":"Government Center","address1":"210 S 7th St. Room 103","city":"Cordele","zip":"31015","coordinates":[-83.7832972,31.9671732]},{"name":"Government Center Annex (Ag Bldg)","address1":"110 W 13th Ave.","city":"Cordele","zip":"31015","coordinates":[-83.7838024,31.9672124]}]},{"name":"Dawson","id":"42","locations":[{"name":"Dawson County Board of Elections and Registration","address1":"96 Academy Avenue","city":"Dawsonville","zip":"30534","coordinates":[-84.1231747,34.4201527]}]},{"name":"Decatur","id":"43","locations":[{"name":"Courthouse Annex","address1":"122 West Water Street","city":"Bainbridge","zip":"39817","coordinates":[-84.5768025,30.9065253]},{"name":"Fairgrounds, Chamber 1","address1":"1211 Vada Road","city":"Bainbridge","zip":"39817","coordinates":[-84.5582034,30.9151421]}]},{"name":"DeKalb","id":"44","locations":[{"name":"Memorial Drive Complex, Suite 300","address1":"4380 Memorial Drive","city":"Decatur","zip":"30032","coordinates":[-84.2467355,33.777961]}]},{"name":"Douglas","id":"48","locations":[{"name":"Board of Elections and Registration","address1":"8700 Hospital Drive","city":"Douglasville","zip":"30134","coordinates":[-84.7305898,33.7434934]},{"name":"Boundary Waters Aquatic Center","address1":"5000 Ga. Hwy 92","city":"Douglasville","zip":"30135","coordinates":[-84.6580816,33.6709096]},{"name":"Deer Lick Park Recreation Center","address1":"2105 Mack Road","city":"Douglasville","zip":"30135","coordinates":[-84.684364,33.7491739]},{"name":"Dog River Library","address1":"6100 Ga. Hwy 5","city":"Douglasville","zip":"30135","coordinates":[-84.8315887,33.6418986]},{"name":"Old Douglas County Courthouse","address1":"6745 Church Street","city":"Douglasville","zip":"30134","coordinates":[-84.7504251,33.7496736]}]},{"name":"Early","id":"49","locations":[{"name":"Elections and Registration Office","address1":"17 McDonald Ave.","city":"Blakely","zip":"39823","coordinates":[-84.9328085,31.378284]}]},{"name":"Elbert","id":"52","locations":[{"name":"Registrar's Office","address1":"45 Forest Avenue","city":"Elberton","zip":"30635","coordinates":[-82.8688087,34.1099341]}]},{"name":"Fannin","id":"55","locations":[{"name":"Fannin County Board of Elections and Registration","address1":"400 West Main Street, Suite 301","city":"Blue Ridge","zip":"30513","coordinates":[-84.3269915,34.8642574]}]},{"name":"Fayette","id":"56","locations":[{"name":"Fayette County Elections Office","address1":"140 Stonewall Avenue West, Suite 209","city":"Fayetteville","zip":"30214","coordinates":[-84.457149,33.4470178]}]},{"name":"Forsyth","id":"58","locations":[{"name":"Voter Registrations & Elections Office","address1":"Forsyth County Administration Bldg","address2":"110 East Main Street","city":"Cumming","zip":"30040","coordinates":[-84.13868,34.2073343]}]},{"name":"Fulton","id":"60","locations":[{"name":"Fulton County Government Center","address1":"130 Peachtree Street SW","city":"Atlanta","zip":"30303","coordinates":[-84.3921204,33.7510458]},{"name":"North Fulton Service Center","address1":"7741 Roswell Road, Suite 232 Room 128","city":"Sandy Springs","zip":"30350","coordinates":[-84.3627312,33.9657187]},{"name":"South Fulton Service Center","address1":"5600 Stonewall Tell Road Room 108","city":"College Park","zip":"30349","coordinates":[-84.5498808,33.6014156]},{"name":"Adamsville Recreation Center","address1":"3201 MLK Jr. Dr. SW","city":"Atlanta","zip":"30311","coordinates":[-84.492061,33.754541]},{"name":"Chastain Park Recreation Center","address1":"140 W. Wieuca Rd. NW ","city":"Atlanta","zip":"30305","coordinates":[-84.3917385,33.8753116]},{"name":"East Point Library","address1":"2757 Main Street","city":"East Point","zip":"30344","coordinates":[-84.4406975,33.6803524]},{"name":"East Roswell Library","address1":"2301 Holcomb Bridge Road","city":"Roswell","zip":"30076","coordinates":[-84.2935563,34.0033506]}]},{"name":"Gilmer","id":"61","locations":[{"name":"Gilmer County Registrar's Office","address1":"1 Broad St., Suite 107","city":"Ellijay","zip":"30540","coordinates":[-84.4808567,34.6959954]}]},{"name":"Glascock","id":"62","locations":[{"name":"Glascock County Registrars Office","address1":"676 West Main Street","city":"Gibson","zip":"30810","coordinates":[-82.596155,33.2334942]}]},{"name":"Glynn","id":"63","locations":[{"name":"Board of Elections","address1":"1815 Gloucester Street","address2":"Second Floor Office Park Building","city":"Brunswick","zip":"31520","coordinates":[-81.4849111,31.1520756]},{"name":"St. Simons Fire Station #2","address1":"1929 Demere Road","city":"St. Simons Island","zip":"31522","coordinates":[-81.3866924,31.1574208]}]},{"name":"Grady","id":"65","locations":[{"name":"Grady County Registrar's Office","address1":"24  3rd Ave NE","city":"Cairo","zip":"39828","coordinates":[-84.2072241,30.8790904]}]},{"name":"Hart","id":"73","locations":[{"name":"Hart County Board of Elections and Registration","address1":"182 Cade Street","address2":"Suite C","city":"Hartwell","zip":"30643","coordinates":[-82.9403807,34.3465231]}]},{"name":"Henry","id":"75","locations":[{"name":"Elections and Registration","address1":"40 Atlanta St","city":"McDonough","zip":"30253","coordinates":[-84.14831,33.4487898]}]},{"name":"Houston","id":"76","locations":[{"name":"Board of Elections","address1":"801 Main Street, ","city":"Perry","zip":"31069","coordinates":[-83.7339299,32.4577932]},{"name":"Central Georgia Technical College","address1":"71 Cohen Walker Dr.","city":"Warner Robins","zip":"31088","coordinates":[-83.668172,32.5457645]},{"name":"Houston Health Pavilion Conference Center","address1":"233 N. Houston Rd.","address2":"BACK OF BUILDING","city":"Warner Robins","zip":"31093","coordinates":[-83.6439965,32.6196738]}]},{"name":"Jasper","id":"79","locations":[{"name":"Registrar's Office","address1":"126 West Greene St","address2":"Suite 3","city":"Monticello","zip":"31064","coordinates":[-83.6857497,33.304991]}]},{"name":"Jeff Davis","id":"80","locations":[{"name":"Jeff Davis County Courthouse","address1":"14 Jeff Davis Street, Room 106","city":"Hazelhurst","zip":"","coordinates":[-82.5998984,31.8623151]}]},{"name":"Jones","id":"84","locations":[{"name":"Jones County Government Center","address1":"166 Industrial Boulevard, Suite 102","city":"Gray","zip":"31032","coordinates":[-83.5348979,33.0213059]}]},{"name":"Lamar","id":"85","locations":[{"name":"Registrar's Office","address1":"408 Thomaston Street","city":"Barnesville","zip":"30204","coordinates":[-84.15761,33.0519465]}]},{"name":"Lee","id":"88","locations":[{"name":"Board of Elections and Registraion Office ","address1":"100 Starksville Ave., North, Suite C","city":"Leesburg","zip":"31763","coordinates":[-84.1680479,31.7319787]}]},{"name":"Lincoln","id":"90","locations":[{"name":"The Lincoln Center","address1":"160 May Avenue","city":"Lincolnton","zip":"30817","coordinates":[-82.4756858,33.7873363]}]},{"name":"Lowndes","id":"92","locations":[{"name":"","address1":"2808 N. Oak Street","city":"Valdosta","zip":"31602","coordinates":[-83.2928097,30.8703392]}]},{"name":"Madison","id":"95","locations":[{"name":"Board of Elections' Office","address1":"91 Albany Avenue","city":"Danielsville","zip":"","coordinates":[-83.2216984,34.1218404]}]},{"name":"McIntosh","id":"98","locations":[{"name":"","address1":"103 Jefferson Street","city":"Darien","zip":"","coordinates":[-81.4337918,31.3714483]}]},{"name":"Meriwether","id":"99","locations":[{"name":"","address1":"137 S. Court Square","city":"Greenville","zip":"","coordinates":[-84.7133508,33.0282743]}]},{"name":"Mitchell","id":"101","locations":[{"name":"Mitchell County Courthouse","address1":"11 W. Broad Street, Room 101","city":"Camilla","zip":"31730","coordinates":[-84.2092518,31.2316098]}]},{"name":"Monroe","id":"102","locations":[{"name":"Monroe County Board of Registration","address1":"38 West Main Street","address2":"P.O. Box 1245","city":"Forsyth","zip":"31029","coordinates":[-83.9396829,33.0339594]}]},{"name":"Newton","id":"107","locations":[{"name":"Newton County Administration Building","address1":"1113 Usher Street","city":"Covington","zip":"30014","coordinates":[-83.859156,33.5977453]}]},{"name":"Oglethorpe","id":"109","locations":[{"name":"Multi-Purpose Building (Lower Level)","address1":"109 East Boggs Street","city":"Lexington","zip":"30648","coordinates":[-83.1114724,33.8681503]}]},{"name":"Pickens","id":"112","locations":[{"name":"","address1":"83 Pioneer Rd","city":"Jasper","zip":"30143","coordinates":[-84.427565,34.4706111]}]},{"name":"Pike","id":"114","locations":[{"name":"Pike County Courthouse","address1":"16001 Barnesville Street","city":"Zebulon","zip":"30295","coordinates":[-84.3421979,33.1020995]}]},{"name":"Polk","id":"115","locations":[{"name":"Board of Elections and Registration","address1":"144 West Avenue, Suite D","city":"Cedartown","zip":"30125","coordinates":[-85.2587035,34.0114516]},{"name":"Nathan Dean Comm. Center","address1":"436 Hogue Ave","city":"Rockmart","zip":"30153","coordinates":[-85.042989,34.0016421]}]},{"name":"Rabun","id":"119","locations":[{"name":"Rabun County Elections and Registration Office","address1":"19 Jo Dotson Circle, Suite 201","city":"Clayton","zip":"30525","coordinates":[-83.4005251,34.8800918]}]},{"name":"Randolph","id":"120","locations":[{"name":"Randolph Elections and Registration","address1":"Randolph County Government Center","address2":"93 Front Street","city":"Cuthbert","zip":"39840","coordinates":[-84.7900232,31.7664383]}]},{"name":"Richmond","id":"121","locations":[{"name":"Board of Elections","address1":"535 Telfair Street","city":"Augusta","zip":"30901","coordinates":[-81.9614282,33.4704752]}]},{"name":"Rockdale","id":"122","locations":[{"name":"","address1":"1400 Parker Road, Lobby C","city":"Conyers","zip":"30094","coordinates":[-84.019312,33.6527187]}]},{"name":"Spalding","id":"126","locations":[{"name":"Memorial Drive Plaza","address1":"825 Memorial Drive","city":"Griffin","zip":"30224","coordinates":[-84.2501949,33.242814]}]},{"name":"Stephens","id":"127","locations":[{"name":"Stephens County Registrar Office","address1":"12 West Tugalo Street","address2":"Suite 250","city":"Toccoa","zip":"30577","coordinates":[-83.3342991,34.5799265]}]},{"name":"Stewart","id":"128","locations":[{"name":"","address1":"1764 Broad Street","city":"Lumpkin","zip":"31815","coordinates":[-84.7954299,32.0510332]}]},{"name":"Taliaferro","id":"131","locations":[{"name":"Taliaferro County Courthouse","address1":"113 Monument Street","city":"Crawfordville","zip":"","coordinates":[-82.8966592,33.5546265]}]},{"name":"Taylor","id":"133","locations":[{"name":"Taylor County Board of Elections","address1":"1B Ivy Street","city":"Butler","zip":"31006","coordinates":[-84.2374615,32.5561052]}]},{"name":"Terrell","id":"135","locations":[{"name":"Government Building","address1":"Board of Elections and Registration","address2":"955 Forrester Drive SE","city":"Dawson","zip":"39842","coordinates":[-84.4367007,31.7611471]}]},{"name":"Towns","id":"139","locations":[{"name":"Towns County Registrars Office","address1":"Old Rock Jail","address2":"48 River Street, Suite 30","city":"Hiawassee","zip":"30546","coordinates":[-83.7571592,34.9475965]}]},{"name":"Troup","id":"141","locations":[{"name":"Elections and Registration Office","address1":"100 Ridley Avenue","address2":"Suite 1100","city":"LaGrange","zip":"30240","coordinates":[-85.0307623,33.0401901]}]},{"name":"Union","id":"144","locations":[{"name":"Union County Courthouse","address1":"65 Courthouse St","city":"Blairsville","zip":"30512","coordinates":[-83.9607834,34.878533]}]},{"name":"Wayne","id":"151","locations":[{"name":"Wayne County Courthouse","address1":"Registrar's Office","address2":"174 North Brunswick Street","city":"Jesup","zip":"31546","coordinates":[-81.8801091,31.6041828]}]},{"name":"White","id":"154","locations":[{"name":"","address1":"1241 Helen Hwy ","city":"Cleveland","zip":"30528","coordinates":[-83.7550038,34.61811]}]},{"name":"Wilkes","id":"157","locations":[{"name":"Wilkes County Courthouse","address1":"23 Court Street, Room 113","city":"Washington","zip":"30673-1570","coordinates":[-82.7389658,33.7382642]}]}]